{"type":"FeatureCollection","features":[{"type":"Feature","properties":{"marker-color":"#8f6edd","marker-size":"medium","marker-symbol":"","id":1,"Name":"Baghdad","Current":"Baghdad","Diaries":"Baghdad","Desc":"Baghdad was the largest and most important city in Ottoman Iraq as well as the capital of the Waliyah of Baghdad. After the time of Wali Midhat Pasha, Baghdad's fortifications began to be dismanteld. Despite this, the 4 gateways of the old city wall remained, whcih appear often in Joseph's diaries. Baghdad boasted over 140 mosques, with the most noteable being the shrine of Skeikh Abdul Qadir Gilani, the Mosque of Maidan, the Azbak mosque, and the minaret of the Souq al-Ghazal. Connecting the city which spans the Tigris river was a 240 yard boat bridge. Baghdad was an incredibly diverse city at the time. With a population of 140,000, over a third were Jewish. The second largest ethnic group were the Arabs at around 38,500 inhabitants, but there were also Turks, Persians, Kurds, Indians, and Europeans. The Christian population was divided by sect amongst Armenian and Chaldean catholics, Syrian Catholics, Roman Catholics (also called Latins), Protestants, and Greek Orthodox communities, each with their own churches. For recreation, Baghdad was home to 12 libraries, a reading room, 28 bath houses, 7 gymnasia, and 2 hotels. Additionallly, there were over 4,000 shops, 2 bazaars, 208 khans, 235 cafes, and numours manufacturing sites. As an important administrative site, it also housed barracks, prisons, hospitals, and several governmental offices. "},"geometry":{"type":"Point","coordinates":[44.41267314075318,33.339151273976576]}},{"type":"Feature","properties":{"id":3,"Name":"Diala River","Current":"Diyala River","Diaries":"Diala","Desc":null},"geometry":{"type":"Point","coordinates":[44.5892881018198,33.30665907379341]}},{"type":"Feature","properties":{"marker-color":"#8f6edd","marker-size":"medium","marker-symbol":"","id":4,"Name":"Ctesiphon","Current":"Taq Kasra - Ctesiphon","Diaries":"Arc of Ctesiphon","Desc":"Mada'in refers to the collection of ruins around 30 miles south of Baghdad. The most prominant ruins are of the Macedonian town of Seleucia and the Parthian city of Ctesiphon. In total, there were approximately 7 ancient towns built in the nearby region. Beginning in the 10th century, much of the stone ruins were deconstructed to use the building materials in Baghdad. Despite this, the population of Mada'in remained numerous for some time. By the 19th century, the area was depopulated for the most part and the most prominent ruins still standing were of the Taq Kisra, a winter palace for the Parthian kings. Across the river from the ruins of Ctesiphon was the tomb of Salman Pak (Salman the Pure), reported to be the barber for the prophet Muhammad."},"geometry":{"type":"Point","coordinates":[44.64818946878486,33.09063662965232]}},{"type":"Feature","properties":{"id":2,"Name":"Gherrarah","Current":"Gharara","Diaries":"Gherrara","Desc":null},"geometry":{"type":"Point","coordinates":[44.47171547512855,33.29530936631107]}},{"type":"Feature","properties":{"id":5,"Name":"Ledje","Current":"Lajj","Diaries":"Ledj","Desc":null},"geometry":{"type":"Point","coordinates":[44.66212219817687,33.00864146661054]}},{"type":"Feature","properties":{"id":6,"Name":"Baghdadie fort","Current":"Baghdadie","Diaries":"Baghdadieh","Desc":null},"geometry":{"type":"Point","coordinates":[44.86179361872167,32.95391716398628]}},{"type":"Feature","properties":{"marker-color":"#9170de","marker-size":"medium","marker-symbol":"","id":7,"Name":"Azizieh Village","Current":"Azizie","Diaries":"Azizieh","Desc":"Until the 1860s, Aziziyah was the site of a police station without many other inhabitants but grew after the development of land by the Dairat as-Saniyah. The village grew to around 1,000 people until it then decreased to 200 inhabitants by 1884 as a result of the fluctuating river. Without sufficient irrigation, the townspeople rely on the nearby Shammar Toqah tribe for resources. The only major export from the village is liquorice which is run by a Jewish inhabitant given a contract from the Ottoman government. "},"geometry":{"type":"Point","coordinates":[45.07099317418909,32.91643539889312]}},{"type":"Feature","properties":{"id":8,"Name":"Toweel","Current":"Tawil","Diaries":"Towil","Desc":null},"geometry":{"type":"Point","coordinates":[45.19067744837847,32.772911617751646]}},{"type":"Feature","properties":{"id":9,"Name":"Memlah","Current":"Memlah","Diaries":"Memleh Station","Desc":null},"geometry":{"type":"Point","coordinates":[45.43929690592739,32.56906271386097]}},{"type":"Feature","properties":{"marker-color":"#9170de","marker-size":"medium","marker-symbol":"","id":10,"Name":"Coot","Current":"Kut","Diaries":"Kootal Hamara","Desc":"The population of Kut was around 4,000 consisting of Faili Kurds, Shiite Arabs, some Jews, and a handful of Christians. There was one mosque with a minaret and a synagogue. Many of the Kurds were porters while the Jews were often involved with goldsmithing and the Christians were liquorice merchants. Many of the inhabitants were involved with agriculture and cattle breeding, as well as trading agricultural products. In Kut, the Euphrates and Tigris Steam Navigation Company maintain a coal depot. The Ottoman authorities also built offices for the Dairat as-Saniyah, the Public Debt Department, and a customs house."},"geometry":{"type":"Point","coordinates":[45.855567798451816,32.48428443140176]}},{"type":"Feature","properties":{"marker-color":"#9272df","marker-size":"medium","marker-symbol":"","id":12,"Name":"Ali Gherbi","Current":"Ali al-Garbi","Diaries":"Ali Cherbi","Desc":"Located almost half-way between Amara and Kut, Ali al-Garbi was home to around 2,000 people in the early 20th century. The predominately Shiite population worked mianly in agriculture and trade. Products such as wheate, barley, ghee, and wool were produced for trade. The town was a depot for Kurish trade in the region and also served as the market town for the Bani Lam tribe. The town was named for a mosque dedicated to Ali, the son of Imam Musa. In town, there is a telegraph office, a customs house, and two khans."},"geometry":{"type":"Point","coordinates":[46.7071608829297,32.46904339185854]}},{"type":"Feature","properties":{"marker-color":"#9170de","marker-size":"medium","marker-symbol":"","id":14,"Name":"Kalat Saleh","Current":"Qal'at Saleh; Qalat Saleh; Qal'a Salih","Diaries":"Kalat Sheikh Saleh","Desc":"Population of 2000, center for rice trade. Qal'at Saleh was officially called Shatrat al-Amarah by the Turkish government. It was a ll town on the left bank of the Tigris river. The town grew in the late 19th century as it became the center for the region's rice trade. The town was divided by a canal and consisted of both brick houses and mud huts. The 2,000 strong population was predominately Sunni Muslims. There were some Sabians who worked with goldsmithing and made small reed boats. The local fort for which the town is named was owned by Faisal, a chief of the Al Bu Muhammad tribe. Rice is the staple export of the town, but locals also produced corn, sesame, millet, and onions. The Dairat as-Saniyah maintained an office in the town and there were three Islamic schools and one Sabian school."},"geometry":{"type":"Point","coordinates":[47.31493043343379,31.512656872913443]}},{"type":"Feature","properties":{"marker-color":"#9170de","marker-size":"medium","marker-symbol":"","id":13,"Name":"Amara","Current":"Amarah","Diaries":"Amara","Desc":"Situtated on the left bank of the Tigirs about 130 miles above Basra. On the other side of the Tigris facing Amara are date plantations and other fruit tree orchards. The population of the town is around 10,000 consisting of 4,500 Sunnis, 3,000 Shiites, 1000 Jews, 1,000 Sabians, and 500 Christians. Most of the inhabitants are Arabs but there are also Kurds, Turkish officals, and some Persians. Many of the inhabitants are traders, artisans, and famers. The area around Amara produces a large quantity of ghee and barley which are shipped to Baghdad, Basra, Mumbai, and Europe. Amarah formed an important administrative site for the southern Iraq region as it hosted a military garrison, an office for the Dairat as-Saniyah, a customs house, a Public Debt Administration office, and a Sanitary Department. Amara grew after 1860 when the Turkish army camped in the area while fighting against the two main local Arab tribes, the Beni Lam and Al Bu Muhammad."},"geometry":{"type":"Point","coordinates":[47.182860879368256,31.836567666050183]}},{"type":"Feature","properties":{"id":15,"Name":"Azair","Current":"Al-Azair; Uzayr","Diaries":"Azeir","Desc":null},"geometry":{"type":"Point","coordinates":[47.425900260179645,31.32858597578196]}},{"type":"Feature","properties":{"id":16,"Name":"Gorna","Current":"AI-Qurnah","Diaries":"Gorma","Desc":null},"geometry":{"type":"Point","coordinates":[47.37181435200808,30.989333526782595]}},{"type":"Feature","properties":{"id":17,"Name":"Basreh","Current":"Basra","Diaries":"Basrah","Desc":null},"geometry":{"type":"Point","coordinates":[47.83190740735576,30.49366272677363]}},{"type":"Feature","properties":{"id":18,"Name":"Sheresh","Current":"N/A","Diaries":"Al Sharish","Desc":null},"geometry":{"type":"Point","coordinates":[45.375139613954126,32.701902268927654]}},{"type":"Feature","properties":{"id":20,"Name":"Bughela","Current":"Bughaila","Diaries":"N/A","Desc":null},"geometry":{"type":"Point","coordinates":[45.435993647279965,32.53294042427364]}},{"type":"Feature","properties":{"id":21,"Name":"Sheikh Saad","Current":"Shaikh Saad","Diaries":"N/A","Desc":null},"geometry":{"type":"Point","coordinates":[46.29922943329912,32.52813732219761]}},{"type":"Feature","properties":{"id":22,"Name":"The Elbow","Current":"N/A","Diaries":"Elbow Reach","Desc":null},"geometry":{"type":"Point","coordinates":[47.4005064309264,31.405981974923375]}},{"type":"Feature","properties":{"id":23,"Name":"Maghil","Current":"Maghill; Mighail","Diaries":"Maghessil","Desc":null},"geometry":{"type":"Point","coordinates":[46.63970908489618,32.48109653704406]}},{"type":"Feature","properties":{"id":28,"Name":"Ali Sherghi","Current":"Ali Al Sharqi","Diaries":"Ali Sherghi Grove","Desc":null},"geometry":{"type":"Point","coordinates":[46.78305817607353,32.11495680935964]}},{"type":"Feature","properties":{"id":29,"Name":"Swera","Current":"Al-Suwaira","Diaries":"Swerah Village","Desc":null},"geometry":{"type":"Point","coordinates":[44.78816573238024,32.94689999926691]}},{"type":"Feature","properties":{"id":37,"Name":"Aboo Sedra","Current":"Aba Sidra","Diaries":"Abou Sedra","Desc":null},"geometry":{"type":"Point","coordinates":[47.171272613192194,31.681837200263253]}},{"type":"Feature","properties":{"id":39,"Name":"Nafikh","Current":"Nufaikh","Diaries":"N/A","Desc":null},"geometry":{"type":"Point","coordinates":[47.3836048795192,31.46444888038461]}},{"type":"Feature","properties":{"id":41,"Name":"Shedief Reach","Current":"N/A","Diaries":"Shedief Reach","Desc":null},"geometry":{"type":"Point","coordinates":[45.23946938986793,32.74813600041267]}},{"type":"Feature","properties":{"id":53,"Name":"Deboony","Current":"Al Dabbouni","Diaries":"Denooni","Desc":null},"geometry":{"type":"Point","coordinates":[45.277782571921584,32.68916519987266]}},{"type":"Feature","properties":{"id":65,"Name":"Seyd Abbass","Current":"Said Abbas","Diaries":"N/A","Desc":null},"geometry":{"type":"Point","coordinates":[46.48386656916802,32.52655722166711]}},{"type":"Feature","properties":{"id":66,"Name":"Salhiat","Current":"N/A","Diaries":"N/A","Desc":null},"geometry":{"type":"Point","coordinates":[46.786294347854884,32.08666271819898]}},{"type":"Feature","properties":{"id":71,"Name":"Um Seneyen","Current":"Umm Sunaym","Diaries":"Umsueyen","Desc":null},"geometry":{"type":"Point","coordinates":[45.30664241183254,32.716793898030225]}},{"type":"Feature","properties":{"id":73,"Name":"Mendelyet","Current":"Mandaliya","Diaries":"N/A","Desc":null},"geometry":{"type":"Point","coordinates":[46.38000338555836,32.50847097511472]}},{"type":"Feature","properties":{"id":81,"Name":"Gutnyeh","Current":"Gutnyeh","Diaries":"N/A","Desc":null},"geometry":{"type":"Point","coordinates":[44.936385220760606,32.91211158090971]}}]}